{
"type": "FeatureCollection",
"name": "Louisville_KY_Free_Public_Libraries",
"crs": { "type": "name", "properties": { "name": "urn:ogc:def:crs:OGC:1.3:CRS84" } },
"features": [
{ "type": "Feature", "properties": { "OBJECTID": 1, "LFPL_NAME": "BON AIR REGIONAL", "LFPL_ADD": "2816 DEL RIO PL", "LFPL_LOC": "LOUISVILLE KY 40220", "LFPL_WEB": "http://www.lfpl.org/branches/bonair.htm", "TELEPHONE": "502-574-1795", "LATITUDE": 38.215198, "LONGITUDE": -85.655197 }, "geometry": { "type": "Point", "coordinates": [ -85.655179397655175, 38.215181962684561 ] } },
{ "type": "Feature", "properties": { "OBJECTID": 2, "LFPL_NAME": "CRESCENT HILL", "LFPL_ADD": "2762 FRANKFORT AVE", "LFPL_LOC": "LOUISVILLE KY 40206", "LFPL_WEB": "http://www.lfpl.org/branches/crescent-hill.htm", "TELEPHONE": "502-574-1793", "LATITUDE": 38.254501, "LONGITUDE": -85.691101 }, "geometry": { "type": "Point", "coordinates": [ -85.6911142490668, 38.2545424638095 ] } },
{ "type": "Feature", "properties": { "OBJECTID": 3, "LFPL_NAME": "FAIRDALE", "LFPL_ADD": "10620 WEST MANSLICK RD", "LFPL_LOC": "FAIRDALE KY 40118", "LFPL_WEB": "http://www.lfpl.org/branches/fairdale.htm", "TELEPHONE": "502-375-2051", "LATITUDE": 38.106098, "LONGITUDE": -85.760597 }, "geometry": { "type": "Point", "coordinates": [ -85.760572439272678, 38.106120140392626 ] } },
{ "type": "Feature", "properties": { "OBJECTID": 4, "LFPL_NAME": "HIGHLANDS-SHELBY PARK", "LFPL_ADD": "1250 BARDSTOWN RD", "LFPL_LOC": "LOUISVILLE KY 40204", "LFPL_WEB": "http://www.lfpl.org/branches/highlands-shelbypark.htm", "TELEPHONE": "502-574-1672", "LATITUDE": 38.234798, "LONGITUDE": -85.717796 }, "geometry": { "type": "Point", "coordinates": [ -85.717809690430158, 38.234798089935218 ] } },
{ "type": "Feature", "properties": { "OBJECTID": 5, "LFPL_NAME": "IROQUOIS", "LFPL_ADD": "601 WEST WOODLAWN AVE", "LFPL_LOC": "LOUISVILLE KY 40215", "LFPL_WEB": "http://www.lfpl.org/branches/iroquois.htm", "TELEPHONE": "502-574-1720", "LATITUDE": 38.182701, "LONGITUDE": -85.771499 }, "geometry": { "type": "Point", "coordinates": [ -85.771546421449187, 38.182679509848413 ] } },
{ "type": "Feature", "properties": { "OBJECTID": 6, "LFPL_NAME": "JEFFERSONTOWN", "LFPL_ADD": "40635 WATTERSON TRL", "LFPL_LOC": "LOUISVILLE KY 40299", "LFPL_WEB": "http://www.lfpl.org/branches/jeffersontown.htm", "TELEPHONE": "502-267-5713", "LATITUDE": 38.197601, "LONGITUDE": -85.561096 }, "geometry": { "type": "Point", "coordinates": [ -85.56113676647827, 38.197610861624071 ] } },
{ "type": "Feature", "properties": { "OBJECTID": 7, "LFPL_NAME": "MIDDLETOWN", "LFPL_ADD": "200 NORTH JUNEAU DR", "LFPL_LOC": "LOUISVILLE KY 40243", "LFPL_WEB": "http://www.lfpl.org/branches/middletown.htm", "TELEPHONE": "502-245-7332", "LATITUDE": 38.247898, "LONGITUDE": -85.526298 }, "geometry": { "type": "Point", "coordinates": [ -85.526321159987731, 38.247876453237964 ] } },
{ "type": "Feature", "properties": { "OBJECTID": 8, "LFPL_NAME": "SOUTH CENTRAL REGIONAL", "LFPL_ADD": "7300 JEFFERSON BLVD", "LFPL_LOC": "LOUISVILLE KY 40219", "LFPL_WEB": "http://www.lfpl.org/branches/NewSouthCentral.htm", "TELEPHONE": "502-969-3515", "LATITUDE": 38.1399, "LONGITUDE": -85.686798 }, "geometry": { "type": "Point", "coordinates": [ -85.675778787100313, 38.144929818904849 ] } },
{ "type": "Feature", "properties": { "OBJECTID": 9, "LFPL_NAME": "PORTLAND", "LFPL_ADD": "3305 NORTHWESTERN PKWY", "LFPL_LOC": "LOUISVILLE KY 40212", "LFPL_WEB": "http://www.lfpl.org/branches/portland.htm", "TELEPHONE": "502-574-1744", "LATITUDE": 38.275199, "LONGITUDE": -85.801399 }, "geometry": { "type": "Point", "coordinates": [ -85.801364337521903, 38.275211659382471 ] } },
{ "type": "Feature", "properties": { "OBJECTID": 10, "LFPL_NAME": "ST. MATTHEWS/ELINE", "LFPL_ADD": "3940 GRANDVIEW AVE", "LFPL_LOC": "LOUISVILLE KY 40207", "LFPL_WEB": "http://www.lfpl.org/branches/stmatthews.htm", "TELEPHONE": "502-574-1771", "LATITUDE": 38.249298, "LONGITUDE": -85.649497 }, "geometry": { "type": "Point", "coordinates": [ -85.64954335925745, 38.249341561717749 ] } },
{ "type": "Feature", "properties": { "OBJECTID": 11, "LFPL_NAME": "SHAWNEE", "LFPL_ADD": "3912 WEST BROADWAY", "LFPL_LOC": "LOUISVILLE KY 40211", "LFPL_WEB": "http://www.lfpl.org/branches/shawnee.htm", "TELEPHONE": "502-574-1722", "LATITUDE": 38.2499, "LONGITUDE": -85.817199 }, "geometry": { "type": "Point", "coordinates": [ -85.817198717812019, 38.249911611325153 ] } },
{ "type": "Feature", "properties": { "OBJECTID": 12, "LFPL_NAME": "SHIVELY", "LFPL_ADD": "3920 DIXIE HWY", "LFPL_LOC": "LOUISVILLE KY 40216", "LFPL_WEB": "http://www.lfpl.org/branches/shively.htm", "TELEPHONE": "502-574-1730", "LATITUDE": 38.195201, "LONGITUDE": -85.8069 }, "geometry": { "type": "Point", "coordinates": [ -85.806906199403798, 38.195212210001046 ] } },
{ "type": "Feature", "properties": { "OBJECTID": 13, "LFPL_NAME": "WESTERN", "LFPL_ADD": "604 SOUTH 10TH ST", "LFPL_LOC": "LOUISVILLE KY 40203", "LFPL_WEB": "http://www.lfpl.org/branches/western.htm", "TELEPHONE": "502-574-1779", "LATITUDE": 38.249698, "LONGITUDE": -85.768096 }, "geometry": { "type": "Point", "coordinates": [ -85.768109474978971, 38.249714573895183 ] } },
{ "type": "Feature", "properties": { "OBJECTID": 14, "LFPL_NAME": "MAIN", "LFPL_ADD": "301 YORK ST", "LFPL_LOC": "LOUISVILLE KY 40203", "LFPL_WEB": "http://www.lfpl.org/branches/main.htm", "TELEPHONE": "502-574-1611", "LATITUDE": 38.244701, "LONGITUDE": -85.757598 }, "geometry": { "type": "Point", "coordinates": [ -85.757607559762107, 38.244684854458519 ] } },
{ "type": "Feature", "properties": { "OBJECTID": 15, "LFPL_NAME": "NEWBURG", "LFPL_ADD": "4800 EXETER AVE", "LFPL_LOC": "LOUISVLLE KY 40218", "LFPL_WEB": "http://www.lfpl.org/branches/newburg.htm", "TELEPHONE": "502-479-6160", "LATITUDE": 38.181312, "LONGITUDE": -85.670672 }, "geometry": { "type": "Point", "coordinates": [ -85.67067510853569, 38.181319206032079 ] } },
{ "type": "Feature", "properties": { "OBJECTID": 16, "LFPL_NAME": "SOUTHWEST BRANCH", "LFPL_ADD": "9725 DIXIE HWY", "LFPL_LOC": "LOUISVILLE KY 40272", "LFPL_WEB": "http://www.lfpl.org/branches/southwest.htm", "TELEPHONE": "502-933-0029", "LATITUDE": 38.1142, "LONGITUDE": -85.859703 }, "geometry": { "type": "Point", "coordinates": [ -85.859667693388559, 38.114243173807473 ] } },
{ "type": "Feature", "properties": { "OBJECTID": 17, "LFPL_NAME": "NORTHEAST REGIONAL", "LFPL_ADD": "15 BELLEVOIR CIR", "LFPL_LOC": "LOUISVILLE KY 40223", "LFPL_WEB": "http://www.lfpl.org/branches/northeast.html", "TELEPHONE": "502-574-1781", "LATITUDE": 38.2683202, "LONGITUDE": -85.5765619 }, "geometry": { "type": "Point", "coordinates": [ -85.576566731589168, 38.268327502233682 ] } }
]
}
